code,provinsi_code,name,lat,lon
5101,51,KABUPATEN JEMBRANA,-8.3233438,114.6667939
5102,51,KABUPATEN TABANAN,-8.4595561,115.0465991
5103,51,KABUPATEN BADUNG,-8.5819296,115.1770586
5104,51,KABUPATEN GIANYAR,-8.4248244,115.2600506
5105,51,KABUPATEN KLUNGKUNG,-8.727807,115.5444231
5106,51,KABUPATEN BANGLI,-8.2975884,115.3548713
5107,51,KABUPATEN KARANGASEM,NULL,NULL
5108,51,KABUPATEN BULELENG,-8.2238968,114.9516869
5171,51,KOTA DENPASAR,-8.6704582,115.2126293